[
  {
    "title": "Viale Ceccarini",
    "imageUrl": "https://images.unsplash.com/photo-1528183429752-a97d0bf99b5a?q=80&w=1740&auto=format&fit=crop&ixlib=rb-4.1.0&ixid=M3wxMjA3fDB8MHxwaG90by1wYWdlfHx8fGVufDB8fHx8fA%3D%3D",
    "description": "La via dello shopping più famosa di Riccione, piena di negozi, locali e vita notturna.",
    "latitude": 43.999351,
    "longitude": 12.655693
  },
  {
    "title": "Spiaggia di Riccione",
    "imageUrl": "https://plus.unsplash.com/premium_photo-1682629632657-4ac307921295?q=80&w=1452&auto=format&fit=crop&ixlib=rb-4.1.0&ixid=M3wxMjA3fDB8MHxwaG90by1wYWdlfHx8fGVufDB8fHx8fA%3D%3D",
    "description": "La famosa spiaggia dorata di Riccione, con stabilimenti balneari attrezzati.",
    "latitude": 44.004571,
    "longitude": 12.654735
  },
  {
    "title": "Aquafan",
    "imageUrl": "https://images.unsplash.com/photo-1584886959665-cf485ea89702?q=80&w=1740&auto=format&fit=crop&ixlib=rb-4.1.0&ixid=M3wxMjA3fDB8MHxwaG90by1wYWdlfHx8fGVufDB8fHx8fA%3D%3D",
    "description": "Uno dei parchi acquatici più famosi d'Europa, ideale per il divertimento estivo.",
    "latitude": 43.995619,
    "longitude": 12.626924
  },
  {
    "title": "Oltremare",
    "imageUrl": "https://images.unsplash.com/photo-1570481662006-a3a1374699e8?q=80&w=930&auto=format&fit=crop&ixlib=rb-4.1.0&ixid=M3wxMjA3fDB8MHxwaG90by1wYWdlfHx8fGVufDB8fHx8fA%3D%3D",
    "description": "Parco tematico dedicato alla natura, ai delfini e agli animali marini.",
    "latitude": 43.994189,
    "longitude": 12.630350
  },
  {
    "title": "Porto di Riccione",
    "imageUrl": "https://images.unsplash.com/photo-1502621737164-fb78cb47e276?q=80&w=1740&auto=format&fit=crop&ixlib=rb-4.1.0&ixid=M3wxMjA3fDB8MHxwaG90by1wYWdlfHx8fGVufDB8fHx8fA%3D%3D",
    "description": "Il pittoresco porto turistico, punto di ritrovo per passeggiate sul mare.",
    "latitude": 44.005378,
    "longitude": 12.656968
  }
]
